{"entity":"losses","stats":{"pageInfo":{"page":0,"numPages":1,"pageSize":20,"numEntries":20},"content":[{"owner":{"name":"Huddersfield Town","club":{"name":"Huddersfield Town","shortName":"Huddersfield","abbr":"HUD","id":159.0},"teamType":"FIRST","grounds":[{"name":"John Smith\u0027s Stadium","city":"Huddersfield","capacity":24500.0,"location":{"latitude":53.6539,"longitude":-1.76906},"source":"OPTA","id":65.0}],"shortName":"Huddersfield","id":159.0,"altIds":{"opta":"t38"}},"rank":1.0,"name":"losses","value":28.0,"description":"Todo: losses","additionalInfo":{}},{"owner":{"name":"Fulham","club":{"name":"Fulham","shortName":"Fulham","abbr":"FUL","id":34.0},"teamType":"FIRST","grounds":[{"name":"Craven Cottage","city":"London","capacity":25700.0,"location":{"latitude":51.4745,"longitude":-0.220993},"source":"OPTA","id":16.0}],"shortName":"Fulham","id":34.0,"altIds":{"opta":"t54"}},"rank":2.0,"name":"losses","value":26.0,"description":"Todo: losses","additionalInfo":{}},{"owner":{"name":"Cardiff City","club":{"name":"Cardiff City","shortName":"Cardiff","abbr":"CAR","id":46.0},"teamType":"FIRST","grounds":[{"name":"Cardiff City Stadium","city":"Cardiff","capacity":26896.0,"location":{"latitude":51.4745,"longitude":-3.19981},"source":"OPTA","id":41.0}],"shortName":"Cardiff","id":46.0,"altIds":{"opta":"t97"}},"rank":3.0,"name":"losses","value":24.0,"description":"Todo: losses","additionalInfo":{}},{"owner":{"name":"Brighton and Hove Albion","club":{"name":"Brighton and Hove Albion","shortName":"Brighton","abbr":"BHA","id":131.0},"teamType":"FIRST","grounds":[{"name":"Amex Stadium","city":"Falmer","capacity":30750.0,"location":{"latitude":50.8606,"longitude":-0.082237},"source":"OPTA","id":1684.0},{"name":"Amex Stadium","city":"Falmer","capacity":22374.0,"location":{"latitude":50.8606,"longitude":-0.082237},"source":"OPTA","id":109.0}],"shortName":"Brighton","id":131.0,"altIds":{"opta":"t36"}},"rank":4.0,"name":"losses","value":20.0,"description":"Todo: losses","additionalInfo":{}},{"owner":{"name":"Burnley","club":{"name":"Burnley","shortName":"Burnley","abbr":"BUR","id":43.0},"teamType":"FIRST","grounds":[{"name":"Turf Moor","city":"Burnley","capacity":21401.0,"location":{"latitude":53.7885,"longitude":-2.23149},"source":"OPTA","id":47.0}],"shortName":"Burnley","id":43.0,"altIds":{"opta":"t90"}},"rank":4.0,"name":"losses","value":20.0,"description":"Todo: losses","additionalInfo":{}},{"owner":{"name":"AFC Bournemouth","club":{"name":"Bournemouth","shortName":"Bournemouth","abbr":"BOU","id":127.0},"teamType":"FIRST","grounds":[{"name":"Vitality Stadium","city":"Bournemouth","capacity":11464.0,"location":{"latitude":50.7349,"longitude":-1.83899},"source":"OPTA","id":914.0},{"name":"Vitality Stadium","city":"Bournemouth","capacity":10783.0,"location":{"latitude":50.7349,"longitude":-1.83899},"source":"OPTA","id":215.0}],"shortName":"AFC Bournemouth","id":127.0,"altIds":{"opta":"t91"}},"rank":6.0,"name":"losses","value":19.0,"description":"Todo: losses","additionalInfo":{}},{"owner":{"name":"Crystal Palace","club":{"name":"Crystal Palace","shortName":"Crystal Palace","abbr":"CRY","id":6.0},"teamType":"FIRST","grounds":[{"name":"Selhurst Park","city":"London","capacity":25073.0,"location":{"latitude":51.3979,"longitude":-0.085923},"source":"OPTA","id":45.0},{"name":"Selhurst Park","city":"London","capacity":26255.0,"location":{"latitude":51.3979,"longitude":-0.085923},"source":"OPTA","id":32.0}],"shortName":"Crystal Palace","id":6.0,"altIds":{"opta":"t31"}},"rank":7.0,"name":"losses","value":17.0,"description":"Todo: losses","additionalInfo":{}},{"owner":{"name":"Newcastle United","club":{"name":"Newcastle United","shortName":"Newcastle","abbr":"NEW","id":23.0},"teamType":"FIRST","grounds":[{"name":"St. James\u0027 Park","city":"Newcastle","capacity":52405.0,"location":{"latitude":54.9752,"longitude":-1.62235},"source":"OPTA","id":27.0},{"name":"St. James\u0027 Park","city":"Newcastle","capacity":52387.0,"location":{"latitude":54.9752,"longitude":-1.62235},"source":"OPTA","id":21.0}],"shortName":"Newcastle","id":23.0,"altIds":{"opta":"t4"}},"rank":7.0,"name":"losses","value":17.0,"description":"Todo: losses","additionalInfo":{}},{"owner":{"name":"Southampton","club":{"name":"Southampton","shortName":"Southampton","abbr":"SOU","id":20.0},"teamType":"FIRST","grounds":[{"name":"St. Mary\u0027s Stadium","city":"Southampton","capacity":32505.0,"location":{"latitude":50.9065,"longitude":-1.39082},"source":"OPTA","id":48.0},{"name":"St. Mary\u0027s Stadium","city":"Southampton","capacity":32690.0,"location":{"latitude":50.9065,"longitude":-1.39082},"source":"OPTA","id":25.0}],"shortName":"Southampton","id":20.0,"altIds":{"opta":"t20"}},"rank":7.0,"name":"losses","value":17.0,"description":"Todo: losses","additionalInfo":{}},{"owner":{"name":"Leicester City","club":{"name":"Leicester City","shortName":"Leicester","abbr":"LEI","id":26.0},"teamType":"FIRST","grounds":[{"name":"King Power Stadium","city":"Leicester","capacity":32312.0,"location":{"latitude":52.62,"longitude":-1.1415},"source":"OPTA","id":49.0}],"shortName":"Leicester","id":26.0,"altIds":{"opta":"t13"}},"rank":10.0,"name":"losses","value":16.0,"description":"Todo: losses","additionalInfo":{}},{"owner":{"name":"Watford","club":{"name":"Watford","shortName":"Watford","abbr":"WAT","id":33.0},"teamType":"FIRST","grounds":[{"name":"Vicarage Road","city":"Watford","capacity":22000.0,"location":{"latitude":51.6496,"longitude":-0.401731},"source":"OPTA","id":136.0}],"shortName":"Watford","id":33.0,"altIds":{"opta":"t57"}},"rank":10.0,"name":"losses","value":16.0,"description":"Todo: losses","additionalInfo":{}},{"owner":{"name":"West Ham United","club":{"name":"West Ham United","shortName":"West Ham","abbr":"WHU","id":25.0},"teamType":"FIRST","grounds":[{"name":"London Stadium","city":"London","source":"OPTA","id":433.0},{"name":"London Stadium","city":"London","source":"OPTA","id":431.0},{"name":"London Stadium","city":"London","capacity":60000.0,"source":"OPTA","id":436.0}],"shortName":"West Ham","id":25.0,"altIds":{"opta":"t21"}},"rank":10.0,"name":"losses","value":16.0,"description":"Todo: losses","additionalInfo":{}},{"owner":{"name":"Everton","club":{"name":"Everton","shortName":"Everton","abbr":"EVE","id":7.0},"teamType":"FIRST","grounds":[{"name":"Goodison Park","city":"Liverpool","capacity":39571.0,"location":{"latitude":53.4387,"longitude":-2.96639},"source":"OPTA","id":31.0},{"name":"Goodison Park","city":"Liverpool","capacity":40157.0,"location":{"latitude":53.4387,"longitude":-2.96639},"source":"OPTA","id":9.0}],"shortName":"Everton","id":7.0,"altIds":{"opta":"t11"}},"rank":13.0,"name":"losses","value":14.0,"description":"Todo: losses","additionalInfo":{}},{"owner":{"name":"Tottenham Hotspur","club":{"name":"Tottenham Hotspur","shortName":"Spurs","abbr":"TOT","id":21.0},"teamType":"FIRST","grounds":[{"name":"Tottenham Hotspur Stadium","city":"London","source":"OPTA","id":1734.0},{"name":"Tottenham Hotspur Stadium","city":"London","capacity":62062.0,"source":"OPTA","id":1740.0},{"name":"Wembley Stadium","city":"London","location":{"latitude":51.556,"longitude":-0.279519},"source":"OPTA","id":836.0}],"shortName":"Spurs","id":21.0,"altIds":{"opta":"t6"}},"rank":14.0,"name":"losses","value":13.0,"description":"Todo: losses","additionalInfo":{}},{"owner":{"name":"Wolverhampton Wanderers","club":{"name":"Wolverhampton Wanderers","shortName":"Wolves","abbr":"WOL","id":38.0},"teamType":"FIRST","grounds":[{"name":"Molineux Stadium","city":"Wolverhampton","capacity":31500.0,"location":{"latitude":52.5904,"longitude":-2.13077},"source":"OPTA","id":913.0},{"name":"Molineux Stadium","city":"Wolverhampton","location":{"latitude":52.5904,"longitude":-2.13077},"source":"OPTA","id":315.0}],"shortName":"Wolves","id":38.0,"altIds":{"opta":"t39"}},"rank":14.0,"name":"losses","value":13.0,"description":"Todo: losses","additionalInfo":{}},{"owner":{"name":"Arsenal","club":{"name":"Arsenal","shortName":"Arsenal","abbr":"ARS","id":1.0},"teamType":"FIRST","grounds":[{"name":"Emirates Stadium","city":"London","capacity":60272.0,"location":{"latitude":51.5548,"longitude":-0.108533},"source":"OPTA","id":52.0},{"name":"Emirates Stadium","city":"London","capacity":60361.0,"location":{"latitude":51.5548,"longitude":-0.108533},"source":"OPTA","id":20.0}],"shortName":"Arsenal","id":1.0,"altIds":{"opta":"t3"}},"rank":16.0,"name":"losses","value":10.0,"description":"Todo: losses","additionalInfo":{}},{"owner":{"name":"Manchester United","club":{"name":"Manchester United","shortName":"Man Utd","abbr":"MUN","id":12.0},"teamType":"FIRST","grounds":[{"name":"Old Trafford","city":"Manchester","capacity":75635.0,"location":{"latitude":53.4626,"longitude":-2.29103},"source":"OPTA","id":42.0},{"name":"Old Trafford","city":"Manchester","capacity":75811.0,"location":{"latitude":53.4626,"longitude":-2.29103},"source":"OPTA","id":3.0}],"shortName":"Man Utd","id":12.0,"altIds":{"opta":"t1"}},"rank":16.0,"name":"losses","value":10.0,"description":"Todo: losses","additionalInfo":{}},{"owner":{"name":"Chelsea","club":{"name":"Chelsea","shortName":"Chelsea","abbr":"CHE","id":4.0},"teamType":"FIRST","grounds":[{"name":"Stamford Bridge","city":"London","capacity":41798.0,"location":{"latitude":51.4816,"longitude":-0.191016},"source":"OPTA","id":30.0},{"name":"Stamford Bridge","city":"London","capacity":41837.0,"location":{"latitude":51.4816,"longitude":-0.191016},"source":"OPTA","id":8.0}],"shortName":"Chelsea","id":4.0,"altIds":{"opta":"t8"}},"rank":18.0,"name":"losses","value":8.0,"description":"Todo: losses","additionalInfo":{}},{"owner":{"name":"Manchester City","club":{"name":"Manchester City","shortName":"Man City","abbr":"MCI","id":11.0},"teamType":"FIRST","grounds":[{"name":"Etihad Stadium","city":"Manchester","capacity":55000.0,"location":{"latitude":53.4832,"longitude":-2.20042},"source":"OPTA","id":457.0},{"name":"Etihad Stadium","city":"Manchester","capacity":47805.0,"location":{"latitude":53.4832,"longitude":-2.20042},"source":"OPTA","id":18.0}],"shortName":"Man City","id":11.0,"altIds":{"opta":"t43"}},"rank":19.0,"name":"losses","value":4.0,"description":"Todo: losses","additionalInfo":{}},{"owner":{"name":"Liverpool","club":{"name":"Liverpool","shortName":"Liverpool","abbr":"LIV","id":10.0},"teamType":"FIRST","grounds":[{"name":"Anfield","city":"Liverpool","capacity":54074.0,"location":{"latitude":53.4313,"longitude":-2.96158},"source":"OPTA","id":901.0},{"name":"Anfield","city":"Liverpool","capacity":45276.0,"location":{"latitude":53.4313,"longitude":-2.96158},"source":"OPTA","id":10.0}],"shortName":"Liverpool","id":10.0,"altIds":{"opta":"t14"}},"rank":20.0,"name":"losses","value":1.0,"description":"Todo: losses","additionalInfo":{}}]}}